[{"region": 15, "comunas": [{"id": "338", "nombre": "Alhue", "lat": "-34.031137", "lng": "-71.100986"}, {"id": "334", "nombre": "Buin", "lat": "-33.731915", "lng": "-70.742231"}, {"id": "335", "nombre": "Calera De Tango", "lat": "-33.628194", "lng": "-70.770057"}, {"id": "296", "nombre": "Cerrillos", "lat": "-33.500749", "lng": "-70.709519"}, {"id": "297", "nombre": "Cerro Navia", "lat": "-33.434858", "lng": "-70.730044"}, {"id": "330", "nombre": "Colina", "lat": "-33.204807", "lng": "-70.675752"}, {"id": "298", "nombre": "Conchali", "lat": "-33.383446", "lng": "-70.677602"}, {"id": "339", "nombre": "Curacavi", "lat": "-33.398397", "lng": "-71.127384"}, {"id": "299", "nombre": "El Bosque", "lat": "-33.564028", "lng": "-70.675615"}, {"id": "343", "nombre": "El Monte", "lat": "-33.681842", "lng": "-70.985108"}, {"id": "300", "nombre": "Estaci\u00f3n Central", "lat": "-33.463599", "lng": "-70.701278"}, {"id": "301", "nombre": "Huechuraba", "lat": "-33.374789", "lng": "-70.649025"}, {"id": "302", "nombre": "Independencia", "lat": "-33.413347", "lng": "-70.666295"}, {"id": "344", "nombre": "Isla De Maipo", "lat": "-33.747420", "lng": "-70.900116"}, {"id": "303", "nombre": "La Cisterna", "lat": "-33.529919", "lng": "-70.663584"}, {"id": "304", "nombre": "La Florida", "lat": "-33.537088", "lng": "-70.586124"}, {"id": "305", "nombre": "La Granja", "lat": "-33.532433", "lng": "-70.623861"}, {"id": "306", "nombre": "La Pintana", "lat": "-33.587773", "lng": "-70.633397"}, {"id": "307", "nombre": "La Reina", "lat": "-33.446470", "lng": "-70.546141"}, {"id": "331", "nombre": "Lampa", "lat": "-33.285037", "lng": "-70.877380"}, {"id": "308", "nombre": "Las Condes", "lat": "-33.409332", "lng": "-70.567308"}, {"id": "309", "nombre": "Lo Barnechea", "lat": "-33.357689", "lng": "-70.511874"}, {"id": "310", "nombre": "Lo Espejo", "lat": "-33.519326", "lng": "-70.691010"}, {"id": "311", "nombre": "Lo Prado", "lat": "-33.446574", "lng": "-70.722864"}, {"id": "312", "nombre": "Macul", "lat": "-33.490635", "lng": "-70.599213"}, {"id": "313", "nombre": "Maipu", "lat": "-33.521463", "lng": "-70.762566"}, {"id": "340", "nombre": "Maria Pinto", "lat": "-33.517241", "lng": "-71.123586"}, {"id": "337", "nombre": "Melipilla", "lat": "-33.686780", "lng": "-71.216045"}, {"id": "314", "nombre": "\u00d1u\u00f1oa", "lat": "-33.459518", "lng": "-70.597858"}, {"id": "345", "nombre": "Padre Hurtado", "lat": "-33.575862", "lng": "-70.813824"}, {"id": "336", "nombre": "Paine", "lat": "-33.813328", "lng": "-70.737956"}, {"id": "315", "nombre": "Pedro Aguirre Cerda", "lat": "-33.490096", "lng": "-70.675792"}, {"id": "346", "nombre": "Pe\u00f1aflor", "lat": "-33.606497", "lng": "-70.877531"}, {"id": "316", "nombre": "Pe\u00f1alolen", "lat": "-33.485871", "lng": "-70.547143"}, {"id": "328", "nombre": "Pirque", "lat": "-33.679667", "lng": "-70.583014"}, {"id": "317", "nombre": "Providencia", "lat": "-33.431494", "lng": "-70.611057"}, {"id": "318", "nombre": "Pudahuel", "lat": "-33.4421948", "lng": "-70.7667027"}, {"id": "327", "nombre": "Puente Alto", "lat": "-33.620226", "lng": "-70.591315"}, {"id": "319", "nombre": "Quilicura", "lat": "-33.359090", "lng": "-70.728871"}, {"id": "320", "nombre": "Quinta Normal", "lat": "-33.429280", "lng": "-70.692999"}, {"id": "321", "nombre": "Recoleta", "lat": "-33.405892", "lng": "-70.638563"}, {"id": "322", "nombre": "Renca", "lat": "-33.401565", "lng": "-70.707589"}, {"id": "333", "nombre": "San Bernardo", "lat": "-33.585796", "lng": "-70.699551"}, {"id": "323", "nombre": "San Joaquin", "lat": "-33.496346", "lng": "-70.626743"}, {"id": "329", "nombre": "San Jose De Maipo", "lat": "-33.768167", "lng": "-70.276530"}, {"id": "324", "nombre": "San Miguel", "lat": "-33.495089", "lng": "-70.651496"}, {"id": "18", "nombre": "San Pedro", "lat": "-33.894642", "lng": "-71.456634"}, {"id": "325", "nombre": "San Ramon", "lat": "-33.535854", "lng": "-70.644564"}, {"id": "295", "nombre": "Santiago", "lat": "-33.449288", "lng": "-70.669287"}, {"id": "342", "nombre": "Talagante", "lat": "-33.664827", "lng": "-70.928011"}, {"id": "332", "nombre": "Til-Til", "lat": "-33.084425", "lng": "-70.928487"}, {"id": "326", "nombre": "Vitacura", "lat": "-33.386826", "lng": "-70.563540"}]}, {"region": 1, "comunas": [{"id": "338", "nombre": "Alhue", "lat": "-34.031137", "lng": "-71.100986"}, {"id": "334", "nombre": "Buin", "lat": "-33.731915", "lng": "-70.742231"}, {"id": "335", "nombre": "Calera De Tango", "lat": "-33.628194", "lng": "-70.770057"}, {"id": "296", "nombre": "Cerrillos", "lat": "-33.500749", "lng": "-70.709519"}, {"id": "297", "nombre": "Cerro Navia", "lat": "-33.434858", "lng": "-70.730044"}, {"id": "330", "nombre": "Colina", "lat": "-33.204807", "lng": "-70.675752"}, {"id": "298", "nombre": "Conchali", "lat": "-33.383446", "lng": "-70.677602"}, {"id": "339", "nombre": "Curacavi", "lat": "-33.398397", "lng": "-71.127384"}, {"id": "299", "nombre": "El Bosque", "lat": "-33.564028", "lng": "-70.675615"}, {"id": "343", "nombre": "El Monte", "lat": "-33.681842", "lng": "-70.985108"}, {"id": "300", "nombre": "Estaci\u00f3n Central", "lat": "-33.463599", "lng": "-70.701278"}, {"id": "301", "nombre": "Huechuraba", "lat": "-33.374789", "lng": "-70.649025"}, {"id": "302", "nombre": "Independencia", "lat": "-33.413347", "lng": "-70.666295"}, {"id": "344", "nombre": "Isla De Maipo", "lat": "-33.747420", "lng": "-70.900116"}, {"id": "303", "nombre": "La Cisterna", "lat": "-33.529919", "lng": "-70.663584"}, {"id": "304", "nombre": "La Florida", "lat": "-33.537088", "lng": "-70.586124"}, {"id": "305", "nombre": "La Granja", "lat": "-33.532433", "lng": "-70.623861"}, {"id": "306", "nombre": "La Pintana", "lat": "-33.587773", "lng": "-70.633397"}, {"id": "307", "nombre": "La Reina", "lat": "-33.446470", "lng": "-70.546141"}, {"id": "331", "nombre": "Lampa", "lat": "-33.285037", "lng": "-70.877380"}, {"id": "308", "nombre": "Las Condes", "lat": "-33.409332", "lng": "-70.567308"}, {"id": "309", "nombre": "Lo Barnechea", "lat": "-33.357689", "lng": "-70.511874"}, {"id": "310", "nombre": "Lo Espejo", "lat": "-33.519326", "lng": "-70.691010"}, {"id": "311", "nombre": "Lo Prado", "lat": "-33.446574", "lng": "-70.722864"}, {"id": "312", "nombre": "Macul", "lat": "-33.490635", "lng": "-70.599213"}, {"id": "313", "nombre": "Maipu", "lat": "-33.521463", "lng": "-70.762566"}, {"id": "340", "nombre": "Maria Pinto", "lat": "-33.517241", "lng": "-71.123586"}, {"id": "337", "nombre": "Melipilla", "lat": "-33.686780", "lng": "-71.216045"}, {"id": "314", "nombre": "\u00d1u\u00f1oa", "lat": "-33.459518", "lng": "-70.597858"}, {"id": "345", "nombre": "Padre Hurtado", "lat": "-33.575862", "lng": "-70.813824"}, {"id": "336", "nombre": "Paine", "lat": "-33.813328", "lng": "-70.737956"}, {"id": "315", "nombre": "Pedro Aguirre Cerda", "lat": "-33.490096", "lng": "-70.675792"}, {"id": "346", "nombre": "Pe\u00f1aflor", "lat": "-33.606497", "lng": "-70.877531"}, {"id": "316", "nombre": "Pe\u00f1alolen", "lat": "-33.485871", "lng": "-70.547143"}, {"id": "328", "nombre": "Pirque", "lat": "-33.679667", "lng": "-70.583014"}, {"id": "317", "nombre": "Providencia", "lat": "-33.431494", "lng": "-70.611057"}, {"id": "318", "nombre": "Pudahuel", "lat": "-33.4421948", "lng": "-70.7667027"}, {"id": "327", "nombre": "Puente Alto", "lat": "-33.620226", "lng": "-70.591315"}, {"id": "319", "nombre": "Quilicura", "lat": "-33.359090", "lng": "-70.728871"}, {"id": "320", "nombre": "Quinta Normal", "lat": "-33.429280", "lng": "-70.692999"}, {"id": "321", "nombre": "Recoleta", "lat": "-33.405892", "lng": "-70.638563"}, {"id": "322", "nombre": "Renca", "lat": "-33.401565", "lng": "-70.707589"}, {"id": "333", "nombre": "San Bernardo", "lat": "-33.585796", "lng": "-70.699551"}, {"id": "323", "nombre": "San Joaquin", "lat": "-33.496346", "lng": "-70.626743"}, {"id": "329", "nombre": "San Jose De Maipo", "lat": "-33.768167", "lng": "-70.276530"}, {"id": "324", "nombre": "San Miguel", "lat": "-33.495089", "lng": "-70.651496"}, {"id": "18", "nombre": "San Pedro", "lat": "-33.894642", "lng": "-71.456634"}, {"id": "325", "nombre": "San Ramon", "lat": "-33.535854", "lng": "-70.644564"}, {"id": "295", "nombre": "Santiago", "lat": "-33.449288", "lng": "-70.669287"}, {"id": "342", "nombre": "Talagante", "lat": "-33.664827", "lng": "-70.928011"}, {"id": "332", "nombre": "Til-Til", "lat": "-33.084425", "lng": "-70.928487"}, {"id": "326", "nombre": "Vitacura", "lat": "-33.386826", "lng": "-70.563540"}]}, {"region": 2, "comunas": [{"id": "338", "nombre": "Alhue", "lat": "-34.031137", "lng": "-71.100986"}, {"id": "334", "nombre": "Buin", "lat": "-33.731915", "lng": "-70.742231"}, {"id": "335", "nombre": "Calera De Tango", "lat": "-33.628194", "lng": "-70.770057"}, {"id": "296", "nombre": "Cerrillos", "lat": "-33.500749", "lng": "-70.709519"}, {"id": "297", "nombre": "Cerro Navia", "lat": "-33.434858", "lng": "-70.730044"}, {"id": "330", "nombre": "Colina", "lat": "-33.204807", "lng": "-70.675752"}, {"id": "298", "nombre": "Conchali", "lat": "-33.383446", "lng": "-70.677602"}, {"id": "339", "nombre": "Curacavi", "lat": "-33.398397", "lng": "-71.127384"}, {"id": "299", "nombre": "El Bosque", "lat": "-33.564028", "lng": "-70.675615"}, {"id": "343", "nombre": "El Monte", "lat": "-33.681842", "lng": "-70.985108"}, {"id": "300", "nombre": "Estaci\u00f3n Central", "lat": "-33.463599", "lng": "-70.701278"}, {"id": "301", "nombre": "Huechuraba", "lat": "-33.374789", "lng": "-70.649025"}, {"id": "302", "nombre": "Independencia", "lat": "-33.413347", "lng": "-70.666295"}, {"id": "344", "nombre": "Isla De Maipo", "lat": "-33.747420", "lng": "-70.900116"}, {"id": "303", "nombre": "La Cisterna", "lat": "-33.529919", "lng": "-70.663584"}, {"id": "304", "nombre": "La Florida", "lat": "-33.537088", "lng": "-70.586124"}, {"id": "305", "nombre": "La Granja", "lat": "-33.532433", "lng": "-70.623861"}, {"id": "306", "nombre": "La Pintana", "lat": "-33.587773", "lng": "-70.633397"}, {"id": "307", "nombre": "La Reina", "lat": "-33.446470", "lng": "-70.546141"}, {"id": "331", "nombre": "Lampa", "lat": "-33.285037", "lng": "-70.877380"}, {"id": "308", "nombre": "Las Condes", "lat": "-33.409332", "lng": "-70.567308"}, {"id": "309", "nombre": "Lo Barnechea", "lat": "-33.357689", "lng": "-70.511874"}, {"id": "310", "nombre": "Lo Espejo", "lat": "-33.519326", "lng": "-70.691010"}, {"id": "311", "nombre": "Lo Prado", "lat": "-33.446574", "lng": "-70.722864"}, {"id": "312", "nombre": "Macul", "lat": "-33.490635", "lng": "-70.599213"}, {"id": "313", "nombre": "Maipu", "lat": "-33.521463", "lng": "-70.762566"}, {"id": "340", "nombre": "Maria Pinto", "lat": "-33.517241", "lng": "-71.123586"}, {"id": "337", "nombre": "Melipilla", "lat": "-33.686780", "lng": "-71.216045"}, {"id": "314", "nombre": "\u00d1u\u00f1oa", "lat": "-33.459518", "lng": "-70.597858"}, {"id": "345", "nombre": "Padre Hurtado", "lat": "-33.575862", "lng": "-70.813824"}, {"id": "336", "nombre": "Paine", "lat": "-33.813328", "lng": "-70.737956"}, {"id": "315", "nombre": "Pedro Aguirre Cerda", "lat": "-33.490096", "lng": "-70.675792"}, {"id": "346", "nombre": "Pe\u00f1aflor", "lat": "-33.606497", "lng": "-70.877531"}, {"id": "316", "nombre": "Pe\u00f1alolen", "lat": "-33.485871", "lng": "-70.547143"}, {"id": "328", "nombre": "Pirque", "lat": "-33.679667", "lng": "-70.583014"}, {"id": "317", "nombre": "Providencia", "lat": "-33.431494", "lng": "-70.611057"}, {"id": "318", "nombre": "Pudahuel", "lat": "-33.4421948", "lng": "-70.7667027"}, {"id": "327", "nombre": "Puente Alto", "lat": "-33.620226", "lng": "-70.591315"}, {"id": "319", "nombre": "Quilicura", "lat": "-33.359090", "lng": "-70.728871"}, {"id": "320", "nombre": "Quinta Normal", "lat": "-33.429280", "lng": "-70.692999"}, {"id": "321", "nombre": "Recoleta", "lat": "-33.405892", "lng": "-70.638563"}, {"id": "322", "nombre": "Renca", "lat": "-33.401565", "lng": "-70.707589"}, {"id": "333", "nombre": "San Bernardo", "lat": "-33.585796", "lng": "-70.699551"}, {"id": "323", "nombre": "San Joaquin", "lat": "-33.496346", "lng": "-70.626743"}, {"id": "329", "nombre": "San Jose De Maipo", "lat": "-33.768167", "lng": "-70.276530"}, {"id": "324", "nombre": "San Miguel", "lat": "-33.495089", "lng": "-70.651496"}, {"id": "18", "nombre": "San Pedro", "lat": "-33.894642", "lng": "-71.456634"}, {"id": "325", "nombre": "San Ramon", "lat": "-33.535854", "lng": "-70.644564"}, {"id": "295", "nombre": "Santiago", "lat": "-33.449288", "lng": "-70.669287"}, {"id": "342", "nombre": "Talagante", "lat": "-33.664827", "lng": "-70.928011"}, {"id": "332", "nombre": "Til-Til", "lat": "-33.084425", "lng": "-70.928487"}, {"id": "326", "nombre": "Vitacura", "lat": "-33.386826", "lng": "-70.563540"}]}, {"region": 3, "comunas": [{"id": "338", "nombre": "Alhue", "lat": "-34.031137", "lng": "-71.100986"}, {"id": "334", "nombre": "Buin", "lat": "-33.731915", "lng": "-70.742231"}, {"id": "335", "nombre": "Calera De Tango", "lat": "-33.628194", "lng": "-70.770057"}, {"id": "296", "nombre": "Cerrillos", "lat": "-33.500749", "lng": "-70.709519"}, {"id": "297", "nombre": "Cerro Navia", "lat": "-33.434858", "lng": "-70.730044"}, {"id": "330", "nombre": "Colina", "lat": "-33.204807", "lng": "-70.675752"}, {"id": "298", "nombre": "Conchali", "lat": "-33.383446", "lng": "-70.677602"}, {"id": "339", "nombre": "Curacavi", "lat": "-33.398397", "lng": "-71.127384"}, {"id": "299", "nombre": "El Bosque", "lat": "-33.564028", "lng": "-70.675615"}, {"id": "343", "nombre": "El Monte", "lat": "-33.681842", "lng": "-70.985108"}, {"id": "300", "nombre": "Estaci\u00f3n Central", "lat": "-33.463599", "lng": "-70.701278"}, {"id": "301", "nombre": "Huechuraba", "lat": "-33.374789", "lng": "-70.649025"}, {"id": "302", "nombre": "Independencia", "lat": "-33.413347", "lng": "-70.666295"}, {"id": "344", "nombre": "Isla De Maipo", "lat": "-33.747420", "lng": "-70.900116"}, {"id": "303", "nombre": "La Cisterna", "lat": "-33.529919", "lng": "-70.663584"}, {"id": "304", "nombre": "La Florida", "lat": "-33.537088", "lng": "-70.586124"}, {"id": "305", "nombre": "La Granja", "lat": "-33.532433", "lng": "-70.623861"}, {"id": "306", "nombre": "La Pintana", "lat": "-33.587773", "lng": "-70.633397"}, {"id": "307", "nombre": "La Reina", "lat": "-33.446470", "lng": "-70.546141"}, {"id": "331", "nombre": "Lampa", "lat": "-33.285037", "lng": "-70.877380"}, {"id": "308", "nombre": "Las Condes", "lat": "-33.409332", "lng": "-70.567308"}, {"id": "309", "nombre": "Lo Barnechea", "lat": "-33.357689", "lng": "-70.511874"}, {"id": "310", "nombre": "Lo Espejo", "lat": "-33.519326", "lng": "-70.691010"}, {"id": "311", "nombre": "Lo Prado", "lat": "-33.446574", "lng": "-70.722864"}, {"id": "312", "nombre": "Macul", "lat": "-33.490635", "lng": "-70.599213"}, {"id": "313", "nombre": "Maipu", "lat": "-33.521463", "lng": "-70.762566"}, {"id": "340", "nombre": "Maria Pinto", "lat": "-33.517241", "lng": "-71.123586"}, {"id": "337", "nombre": "Melipilla", "lat": "-33.686780", "lng": "-71.216045"}, {"id": "314", "nombre": "\u00d1u\u00f1oa", "lat": "-33.459518", "lng": "-70.597858"}, {"id": "345", "nombre": "Padre Hurtado", "lat": "-33.575862", "lng": "-70.813824"}, {"id": "336", "nombre": "Paine", "lat": "-33.813328", "lng": "-70.737956"}, {"id": "315", "nombre": "Pedro Aguirre Cerda", "lat": "-33.490096", "lng": "-70.675792"}, {"id": "346", "nombre": "Pe\u00f1aflor", "lat": "-33.606497", "lng": "-70.877531"}, {"id": "316", "nombre": "Pe\u00f1alolen", "lat": "-33.485871", "lng": "-70.547143"}, {"id": "328", "nombre": "Pirque", "lat": "-33.679667", "lng": "-70.583014"}, {"id": "317", "nombre": "Providencia", "lat": "-33.431494", "lng": "-70.611057"}, {"id": "318", "nombre": "Pudahuel", "lat": "-33.4421948", "lng": "-70.7667027"}, {"id": "327", "nombre": "Puente Alto", "lat": "-33.620226", "lng": "-70.591315"}, {"id": "319", "nombre": "Quilicura", "lat": "-33.359090", "lng": "-70.728871"}, {"id": "320", "nombre": "Quinta Normal", "lat": "-33.429280", "lng": "-70.692999"}, {"id": "321", "nombre": "Recoleta", "lat": "-33.405892", "lng": "-70.638563"}, {"id": "322", "nombre": "Renca", "lat": "-33.401565", "lng": "-70.707589"}, {"id": "333", "nombre": "San Bernardo", "lat": "-33.585796", "lng": "-70.699551"}, {"id": "323", "nombre": "San Joaquin", "lat": "-33.496346", "lng": "-70.626743"}, {"id": "329", "nombre": "San Jose De Maipo", "lat": "-33.768167", "lng": "-70.276530"}, {"id": "324", "nombre": "San Miguel", "lat": "-33.495089", "lng": "-70.651496"}, {"id": "18", "nombre": "San Pedro", "lat": "-33.894642", "lng": "-71.456634"}, {"id": "325", "nombre": "San Ramon", "lat": "-33.535854", "lng": "-70.644564"}, {"id": "295", "nombre": "Santiago", "lat": "-33.449288", "lng": "-70.669287"}, {"id": "342", "nombre": "Talagante", "lat": "-33.664827", "lng": "-70.928011"}, {"id": "332", "nombre": "Til-Til", "lat": "-33.084425", "lng": "-70.928487"}, {"id": "326", "nombre": "Vitacura", "lat": "-33.386826", "lng": "-70.563540"}]}, {"region": 4, "comunas": [{"id": "338", "nombre": "Alhue", "lat": "-34.031137", "lng": "-71.100986"}, {"id": "334", "nombre": "Buin", "lat": "-33.731915", "lng": "-70.742231"}, {"id": "335", "nombre": "Calera De Tango", "lat": "-33.628194", "lng": "-70.770057"}, {"id": "296", "nombre": "Cerrillos", "lat": "-33.500749", "lng": "-70.709519"}, {"id": "297", "nombre": "Cerro Navia", "lat": "-33.434858", "lng": "-70.730044"}, {"id": "330", "nombre": "Colina", "lat": "-33.204807", "lng": "-70.675752"}, {"id": "298", "nombre": "Conchali", "lat": "-33.383446", "lng": "-70.677602"}, {"id": "339", "nombre": "Curacavi", "lat": "-33.398397", "lng": "-71.127384"}, {"id": "299", "nombre": "El Bosque", "lat": "-33.564028", "lng": "-70.675615"}, {"id": "343", "nombre": "El Monte", "lat": "-33.681842", "lng": "-70.985108"}, {"id": "300", "nombre": "Estaci\u00f3n Central", "lat": "-33.463599", "lng": "-70.701278"}, {"id": "301", "nombre": "Huechuraba", "lat": "-33.374789", "lng": "-70.649025"}, {"id": "302", "nombre": "Independencia", "lat": "-33.413347", "lng": "-70.666295"}, {"id": "344", "nombre": "Isla De Maipo", "lat": "-33.747420", "lng": "-70.900116"}, {"id": "303", "nombre": "La Cisterna", "lat": "-33.529919", "lng": "-70.663584"}, {"id": "304", "nombre": "La Florida", "lat": "-33.537088", "lng": "-70.586124"}, {"id": "305", "nombre": "La Granja", "lat": "-33.532433", "lng": "-70.623861"}, {"id": "306", "nombre": "La Pintana", "lat": "-33.587773", "lng": "-70.633397"}, {"id": "307", "nombre": "La Reina", "lat": "-33.446470", "lng": "-70.546141"}, {"id": "331", "nombre": "Lampa", "lat": "-33.285037", "lng": "-70.877380"}, {"id": "308", "nombre": "Las Condes", "lat": "-33.409332", "lng": "-70.567308"}, {"id": "309", "nombre": "Lo Barnechea", "lat": "-33.357689", "lng": "-70.511874"}, {"id": "310", "nombre": "Lo Espejo", "lat": "-33.519326", "lng": "-70.691010"}, {"id": "311", "nombre": "Lo Prado", "lat": "-33.446574", "lng": "-70.722864"}, {"id": "312", "nombre": "Macul", "lat": "-33.490635", "lng": "-70.599213"}, {"id": "313", "nombre": "Maipu", "lat": "-33.521463", "lng": "-70.762566"}, {"id": "340", "nombre": "Maria Pinto", "lat": "-33.517241", "lng": "-71.123586"}, {"id": "337", "nombre": "Melipilla", "lat": "-33.686780", "lng": "-71.216045"}, {"id": "314", "nombre": "\u00d1u\u00f1oa", "lat": "-33.459518", "lng": "-70.597858"}, {"id": "345", "nombre": "Padre Hurtado", "lat": "-33.575862", "lng": "-70.813824"}, {"id": "336", "nombre": "Paine", "lat": "-33.813328", "lng": "-70.737956"}, {"id": "315", "nombre": "Pedro Aguirre Cerda", "lat": "-33.490096", "lng": "-70.675792"}, {"id": "346", "nombre": "Pe\u00f1aflor", "lat": "-33.606497", "lng": "-70.877531"}, {"id": "316", "nombre": "Pe\u00f1alolen", "lat": "-33.485871", "lng": "-70.547143"}, {"id": "328", "nombre": "Pirque", "lat": "-33.679667", "lng": "-70.583014"}, {"id": "317", "nombre": "Providencia", "lat": "-33.431494", "lng": "-70.611057"}, {"id": "318", "nombre": "Pudahuel", "lat": "-33.4421948", "lng": "-70.7667027"}, {"id": "327", "nombre": "Puente Alto", "lat": "-33.620226", "lng": "-70.591315"}, {"id": "319", "nombre": "Quilicura", "lat": "-33.359090", "lng": "-70.728871"}, {"id": "320", "nombre": "Quinta Normal", "lat": "-33.429280", "lng": "-70.692999"}, {"id": "321", "nombre": "Recoleta", "lat": "-33.405892", "lng": "-70.638563"}, {"id": "322", "nombre": "Renca", "lat": "-33.401565", "lng": "-70.707589"}, {"id": "333", "nombre": "San Bernardo", "lat": "-33.585796", "lng": "-70.699551"}, {"id": "323", "nombre": "San Joaquin", "lat": "-33.496346", "lng": "-70.626743"}, {"id": "329", "nombre": "San Jose De Maipo", "lat": "-33.768167", "lng": "-70.276530"}, {"id": "324", "nombre": "San Miguel", "lat": "-33.495089", "lng": "-70.651496"}, {"id": "18", "nombre": "San Pedro", "lat": "-33.894642", "lng": "-71.456634"}, {"id": "325", "nombre": "San Ramon", "lat": "-33.535854", "lng": "-70.644564"}, {"id": "295", "nombre": "Santiago", "lat": "-33.449288", "lng": "-70.669287"}, {"id": "342", "nombre": "Talagante", "lat": "-33.664827", "lng": "-70.928011"}, {"id": "332", "nombre": "Til-Til", "lat": "-33.084425", "lng": "-70.928487"}, {"id": "326", "nombre": "Vitacura", "lat": "-33.386826", "lng": "-70.563540"}]}, {"region": 5, "comunas": [{"id": "338", "nombre": "Alhue", "lat": "-34.031137", "lng": "-71.100986"}, {"id": "334", "nombre": "Buin", "lat": "-33.731915", "lng": "-70.742231"}, {"id": "335", "nombre": "Calera De Tango", "lat": "-33.628194", "lng": "-70.770057"}, {"id": "296", "nombre": "Cerrillos", "lat": "-33.500749", "lng": "-70.709519"}, {"id": "297", "nombre": "Cerro Navia", "lat": "-33.434858", "lng": "-70.730044"}, {"id": "330", "nombre": "Colina", "lat": "-33.204807", "lng": "-70.675752"}, {"id": "298", "nombre": "Conchali", "lat": "-33.383446", "lng": "-70.677602"}, {"id": "339", "nombre": "Curacavi", "lat": "-33.398397", "lng": "-71.127384"}, {"id": "299", "nombre": "El Bosque", "lat": "-33.564028", "lng": "-70.675615"}, {"id": "343", "nombre": "El Monte", "lat": "-33.681842", "lng": "-70.985108"}, {"id": "300", "nombre": "Estaci\u00f3n Central", "lat": "-33.463599", "lng": "-70.701278"}, {"id": "301", "nombre": "Huechuraba", "lat": "-33.374789", "lng": "-70.649025"}, {"id": "302", "nombre": "Independencia", "lat": "-33.413347", "lng": "-70.666295"}, {"id": "344", "nombre": "Isla De Maipo", "lat": "-33.747420", "lng": "-70.900116"}, {"id": "303", "nombre": "La Cisterna", "lat": "-33.529919", "lng": "-70.663584"}, {"id": "304", "nombre": "La Florida", "lat": "-33.537088", "lng": "-70.586124"}, {"id": "305", "nombre": "La Granja", "lat": "-33.532433", "lng": "-70.623861"}, {"id": "306", "nombre": "La Pintana", "lat": "-33.587773", "lng": "-70.633397"}, {"id": "307", "nombre": "La Reina", "lat": "-33.446470", "lng": "-70.546141"}, {"id": "331", "nombre": "Lampa", "lat": "-33.285037", "lng": "-70.877380"}, {"id": "308", "nombre": "Las Condes", "lat": "-33.409332", "lng": "-70.567308"}, {"id": "309", "nombre": "Lo Barnechea", "lat": "-33.357689", "lng": "-70.511874"}, {"id": "310", "nombre": "Lo Espejo", "lat": "-33.519326", "lng": "-70.691010"}, {"id": "311", "nombre": "Lo Prado", "lat": "-33.446574", "lng": "-70.722864"}, {"id": "312", "nombre": "Macul", "lat": "-33.490635", "lng": "-70.599213"}, {"id": "313", "nombre": "Maipu", "lat": "-33.521463", "lng": "-70.762566"}, {"id": "340", "nombre": "Maria Pinto", "lat": "-33.517241", "lng": "-71.123586"}, {"id": "337", "nombre": "Melipilla", "lat": "-33.686780", "lng": "-71.216045"}, {"id": "314", "nombre": "\u00d1u\u00f1oa", "lat": "-33.459518", "lng": "-70.597858"}, {"id": "345", "nombre": "Padre Hurtado", "lat": "-33.575862", "lng": "-70.813824"}, {"id": "336", "nombre": "Paine", "lat": "-33.813328", "lng": "-70.737956"}, {"id": "315", "nombre": "Pedro Aguirre Cerda", "lat": "-33.490096", "lng": "-70.675792"}, {"id": "346", "nombre": "Pe\u00f1aflor", "lat": "-33.606497", "lng": "-70.877531"}, {"id": "316", "nombre": "Pe\u00f1alolen", "lat": "-33.485871", "lng": "-70.547143"}, {"id": "328", "nombre": "Pirque", "lat": "-33.679667", "lng": "-70.583014"}, {"id": "317", "nombre": "Providencia", "lat": "-33.431494", "lng": "-70.611057"}, {"id": "318", "nombre": "Pudahuel", "lat": "-33.4421948", "lng": "-70.7667027"}, {"id": "327", "nombre": "Puente Alto", "lat": "-33.620226", "lng": "-70.591315"}, {"id": "319", "nombre": "Quilicura", "lat": "-33.359090", "lng": "-70.728871"}, {"id": "320", "nombre": "Quinta Normal", "lat": "-33.429280", "lng": "-70.692999"}, {"id": "321", "nombre": "Recoleta", "lat": "-33.405892", "lng": "-70.638563"}, {"id": "322", "nombre": "Renca", "lat": "-33.401565", "lng": "-70.707589"}, {"id": "333", "nombre": "San Bernardo", "lat": "-33.585796", "lng": "-70.699551"}, {"id": "323", "nombre": "San Joaquin", "lat": "-33.496346", "lng": "-70.626743"}, {"id": "329", "nombre": "San Jose De Maipo", "lat": "-33.768167", "lng": "-70.276530"}, {"id": "324", "nombre": "San Miguel", "lat": "-33.495089", "lng": "-70.651496"}, {"id": "18", "nombre": "San Pedro", "lat": "-33.894642", "lng": "-71.456634"}, {"id": "325", "nombre": "San Ramon", "lat": "-33.535854", "lng": "-70.644564"}, {"id": "295", "nombre": "Santiago", "lat": "-33.449288", "lng": "-70.669287"}, {"id": "342", "nombre": "Talagante", "lat": "-33.664827", "lng": "-70.928011"}, {"id": "332", "nombre": "Til-Til", "lat": "-33.084425", "lng": "-70.928487"}, {"id": "326", "nombre": "Vitacura", "lat": "-33.386826", "lng": "-70.563540"}]}, {"region": 13, "comunas": [{"id": "338", "nombre": "Alhue", "lat": "-34.031137", "lng": "-71.100986"}, {"id": "334", "nombre": "Buin", "lat": "-33.731915", "lng": "-70.742231"}, {"id": "335", "nombre": "Calera De Tango", "lat": "-33.628194", "lng": "-70.770057"}, {"id": "296", "nombre": "Cerrillos", "lat": "-33.500749", "lng": "-70.709519"}, {"id": "297", "nombre": "Cerro Navia", "lat": "-33.434858", "lng": "-70.730044"}, {"id": "330", "nombre": "Colina", "lat": "-33.204807", "lng": "-70.675752"}, {"id": "298", "nombre": "Conchali", "lat": "-33.383446", "lng": "-70.677602"}, {"id": "339", "nombre": "Curacavi", "lat": "-33.398397", "lng": "-71.127384"}, {"id": "299", "nombre": "El Bosque", "lat": "-33.564028", "lng": "-70.675615"}, {"id": "343", "nombre": "El Monte", "lat": "-33.681842", "lng": "-70.985108"}, {"id": "300", "nombre": "Estaci\u00f3n Central", "lat": "-33.463599", "lng": "-70.701278"}, {"id": "301", "nombre": "Huechuraba", "lat": "-33.374789", "lng": "-70.649025"}, {"id": "302", "nombre": "Independencia", "lat": "-33.413347", "lng": "-70.666295"}, {"id": "344", "nombre": "Isla De Maipo", "lat": "-33.747420", "lng": "-70.900116"}, {"id": "303", "nombre": "La Cisterna", "lat": "-33.529919", "lng": "-70.663584"}, {"id": "304", "nombre": "La Florida", "lat": "-33.537088", "lng": "-70.586124"}, {"id": "305", "nombre": "La Granja", "lat": "-33.532433", "lng": "-70.623861"}, {"id": "306", "nombre": "La Pintana", "lat": "-33.587773", "lng": "-70.633397"}, {"id": "307", "nombre": "La Reina", "lat": "-33.446470", "lng": "-70.546141"}, {"id": "331", "nombre": "Lampa", "lat": "-33.285037", "lng": "-70.877380"}, {"id": "308", "nombre": "Las Condes", "lat": "-33.409332", "lng": "-70.567308"}, {"id": "309", "nombre": "Lo Barnechea", "lat": "-33.357689", "lng": "-70.511874"}, {"id": "310", "nombre": "Lo Espejo", "lat": "-33.519326", "lng": "-70.691010"}, {"id": "311", "nombre": "Lo Prado", "lat": "-33.446574", "lng": "-70.722864"}, {"id": "312", "nombre": "Macul", "lat": "-33.490635", "lng": "-70.599213"}, {"id": "313", "nombre": "Maipu", "lat": "-33.521463", "lng": "-70.762566"}, {"id": "340", "nombre": "Maria Pinto", "lat": "-33.517241", "lng": "-71.123586"}, {"id": "337", "nombre": "Melipilla", "lat": "-33.686780", "lng": "-71.216045"}, {"id": "314", "nombre": "\u00d1u\u00f1oa", "lat": "-33.459518", "lng": "-70.597858"}, {"id": "345", "nombre": "Padre Hurtado", "lat": "-33.575862", "lng": "-70.813824"}, {"id": "336", "nombre": "Paine", "lat": "-33.813328", "lng": "-70.737956"}, {"id": "315", "nombre": "Pedro Aguirre Cerda", "lat": "-33.490096", "lng": "-70.675792"}, {"id": "346", "nombre": "Pe\u00f1aflor", "lat": "-33.606497", "lng": "-70.877531"}, {"id": "316", "nombre": "Pe\u00f1alolen", "lat": "-33.485871", "lng": "-70.547143"}, {"id": "328", "nombre": "Pirque", "lat": "-33.679667", "lng": "-70.583014"}, {"id": "317", "nombre": "Providencia", "lat": "-33.431494", "lng": "-70.611057"}, {"id": "318", "nombre": "Pudahuel", "lat": "-33.4421948", "lng": "-70.7667027"}, {"id": "327", "nombre": "Puente Alto", "lat": "-33.620226", "lng": "-70.591315"}, {"id": "319", "nombre": "Quilicura", "lat": "-33.359090", "lng": "-70.728871"}, {"id": "320", "nombre": "Quinta Normal", "lat": "-33.429280", "lng": "-70.692999"}, {"id": "321", "nombre": "Recoleta", "lat": "-33.405892", "lng": "-70.638563"}, {"id": "322", "nombre": "Renca", "lat": "-33.401565", "lng": "-70.707589"}, {"id": "333", "nombre": "San Bernardo", "lat": "-33.585796", "lng": "-70.699551"}, {"id": "323", "nombre": "San Joaquin", "lat": "-33.496346", "lng": "-70.626743"}, {"id": "329", "nombre": "San Jose De Maipo", "lat": "-33.768167", "lng": "-70.276530"}, {"id": "324", "nombre": "San Miguel", "lat": "-33.495089", "lng": "-70.651496"}, {"id": "18", "nombre": "San Pedro", "lat": "-33.894642", "lng": "-71.456634"}, {"id": "325", "nombre": "San Ramon", "lat": "-33.535854", "lng": "-70.644564"}, {"id": "295", "nombre": "Santiago", "lat": "-33.449288", "lng": "-70.669287"}, {"id": "342", "nombre": "Talagante", "lat": "-33.664827", "lng": "-70.928011"}, {"id": "332", "nombre": "Til-Til", "lat": "-33.084425", "lng": "-70.928487"}, {"id": "326", "nombre": "Vitacura", "lat": "-33.386826", "lng": "-70.563540"}]}, {"region": 6, "comunas": [{"id": "338", "nombre": "Alhue", "lat": "-34.031137", "lng": "-71.100986"}, {"id": "334", "nombre": "Buin", "lat": "-33.731915", "lng": "-70.742231"}, {"id": "335", "nombre": "Calera De Tango", "lat": "-33.628194", "lng": "-70.770057"}, {"id": "296", "nombre": "Cerrillos", "lat": "-33.500749", "lng": "-70.709519"}, {"id": "297", "nombre": "Cerro Navia", "lat": "-33.434858", "lng": "-70.730044"}, {"id": "330", "nombre": "Colina", "lat": "-33.204807", "lng": "-70.675752"}, {"id": "298", "nombre": "Conchali", "lat": "-33.383446", "lng": "-70.677602"}, {"id": "339", "nombre": "Curacavi", "lat": "-33.398397", "lng": "-71.127384"}, {"id": "299", "nombre": "El Bosque", "lat": "-33.564028", "lng": "-70.675615"}, {"id": "343", "nombre": "El Monte", "lat": "-33.681842", "lng": "-70.985108"}, {"id": "300", "nombre": "Estaci\u00f3n Central", "lat": "-33.463599", "lng": "-70.701278"}, {"id": "301", "nombre": "Huechuraba", "lat": "-33.374789", "lng": "-70.649025"}, {"id": "302", "nombre": "Independencia", "lat": "-33.413347", "lng": "-70.666295"}, {"id": "344", "nombre": "Isla De Maipo", "lat": "-33.747420", "lng": "-70.900116"}, {"id": "303", "nombre": "La Cisterna", "lat": "-33.529919", "lng": "-70.663584"}, {"id": "304", "nombre": "La Florida", "lat": "-33.537088", "lng": "-70.586124"}, {"id": "305", "nombre": "La Granja", "lat": "-33.532433", "lng": "-70.623861"}, {"id": "306", "nombre": "La Pintana", "lat": "-33.587773", "lng": "-70.633397"}, {"id": "307", "nombre": "La Reina", "lat": "-33.446470", "lng": "-70.546141"}, {"id": "331", "nombre": "Lampa", "lat": "-33.285037", "lng": "-70.877380"}, {"id": "308", "nombre": "Las Condes", "lat": "-33.409332", "lng": "-70.567308"}, {"id": "309", "nombre": "Lo Barnechea", "lat": "-33.357689", "lng": "-70.511874"}, {"id": "310", "nombre": "Lo Espejo", "lat": "-33.519326", "lng": "-70.691010"}, {"id": "311", "nombre": "Lo Prado", "lat": "-33.446574", "lng": "-70.722864"}, {"id": "312", "nombre": "Macul", "lat": "-33.490635", "lng": "-70.599213"}, {"id": "313", "nombre": "Maipu", "lat": "-33.521463", "lng": "-70.762566"}, {"id": "340", "nombre": "Maria Pinto", "lat": "-33.517241", "lng": "-71.123586"}, {"id": "337", "nombre": "Melipilla", "lat": "-33.686780", "lng": "-71.216045"}, {"id": "314", "nombre": "\u00d1u\u00f1oa", "lat": "-33.459518", "lng": "-70.597858"}, {"id": "345", "nombre": "Padre Hurtado", "lat": "-33.575862", "lng": "-70.813824"}, {"id": "336", "nombre": "Paine", "lat": "-33.813328", "lng": "-70.737956"}, {"id": "315", "nombre": "Pedro Aguirre Cerda", "lat": "-33.490096", "lng": "-70.675792"}, {"id": "346", "nombre": "Pe\u00f1aflor", "lat": "-33.606497", "lng": "-70.877531"}, {"id": "316", "nombre": "Pe\u00f1alolen", "lat": "-33.485871", "lng": "-70.547143"}, {"id": "328", "nombre": "Pirque", "lat": "-33.679667", "lng": "-70.583014"}, {"id": "317", "nombre": "Providencia", "lat": "-33.431494", "lng": "-70.611057"}, {"id": "318", "nombre": "Pudahuel", "lat": "-33.4421948", "lng": "-70.7667027"}, {"id": "327", "nombre": "Puente Alto", "lat": "-33.620226", "lng": "-70.591315"}, {"id": "319", "nombre": "Quilicura", "lat": "-33.359090", "lng": "-70.728871"}, {"id": "320", "nombre": "Quinta Normal", "lat": "-33.429280", "lng": "-70.692999"}, {"id": "321", "nombre": "Recoleta", "lat": "-33.405892", "lng": "-70.638563"}, {"id": "322", "nombre": "Renca", "lat": "-33.401565", "lng": "-70.707589"}, {"id": "333", "nombre": "San Bernardo", "lat": "-33.585796", "lng": "-70.699551"}, {"id": "323", "nombre": "San Joaquin", "lat": "-33.496346", "lng": "-70.626743"}, {"id": "329", "nombre": "San Jose De Maipo", "lat": "-33.768167", "lng": "-70.276530"}, {"id": "324", "nombre": "San Miguel", "lat": "-33.495089", "lng": "-70.651496"}, {"id": "18", "nombre": "San Pedro", "lat": "-33.894642", "lng": "-71.456634"}, {"id": "325", "nombre": "San Ramon", "lat": "-33.535854", "lng": "-70.644564"}, {"id": "295", "nombre": "Santiago", "lat": "-33.449288", "lng": "-70.669287"}, {"id": "342", "nombre": "Talagante", "lat": "-33.664827", "lng": "-70.928011"}, {"id": "332", "nombre": "Til-Til", "lat": "-33.084425", "lng": "-70.928487"}, {"id": "326", "nombre": "Vitacura", "lat": "-33.386826", "lng": "-70.563540"}]}, {"region": 7, "comunas": [{"id": "338", "nombre": "Alhue", "lat": "-34.031137", "lng": "-71.100986"}, {"id": "334", "nombre": "Buin", "lat": "-33.731915", "lng": "-70.742231"}, {"id": "335", "nombre": "Calera De Tango", "lat": "-33.628194", "lng": "-70.770057"}, {"id": "296", "nombre": "Cerrillos", "lat": "-33.500749", "lng": "-70.709519"}, {"id": "297", "nombre": "Cerro Navia", "lat": "-33.434858", "lng": "-70.730044"}, {"id": "330", "nombre": "Colina", "lat": "-33.204807", "lng": "-70.675752"}, {"id": "298", "nombre": "Conchali", "lat": "-33.383446", "lng": "-70.677602"}, {"id": "339", "nombre": "Curacavi", "lat": "-33.398397", "lng": "-71.127384"}, {"id": "299", "nombre": "El Bosque", "lat": "-33.564028", "lng": "-70.675615"}, {"id": "343", "nombre": "El Monte", "lat": "-33.681842", "lng": "-70.985108"}, {"id": "300", "nombre": "Estaci\u00f3n Central", "lat": "-33.463599", "lng": "-70.701278"}, {"id": "301", "nombre": "Huechuraba", "lat": "-33.374789", "lng": "-70.649025"}, {"id": "302", "nombre": "Independencia", "lat": "-33.413347", "lng": "-70.666295"}, {"id": "344", "nombre": "Isla De Maipo", "lat": "-33.747420", "lng": "-70.900116"}, {"id": "303", "nombre": "La Cisterna", "lat": "-33.529919", "lng": "-70.663584"}, {"id": "304", "nombre": "La Florida", "lat": "-33.537088", "lng": "-70.586124"}, {"id": "305", "nombre": "La Granja", "lat": "-33.532433", "lng": "-70.623861"}, {"id": "306", "nombre": "La Pintana", "lat": "-33.587773", "lng": "-70.633397"}, {"id": "307", "nombre": "La Reina", "lat": "-33.446470", "lng": "-70.546141"}, {"id": "331", "nombre": "Lampa", "lat": "-33.285037", "lng": "-70.877380"}, {"id": "308", "nombre": "Las Condes", "lat": "-33.409332", "lng": "-70.567308"}, {"id": "309", "nombre": "Lo Barnechea", "lat": "-33.357689", "lng": "-70.511874"}, {"id": "310", "nombre": "Lo Espejo", "lat": "-33.519326", "lng": "-70.691010"}, {"id": "311", "nombre": "Lo Prado", "lat": "-33.446574", "lng": "-70.722864"}, {"id": "312", "nombre": "Macul", "lat": "-33.490635", "lng": "-70.599213"}, {"id": "313", "nombre": "Maipu", "lat": "-33.521463", "lng": "-70.762566"}, {"id": "340", "nombre": "Maria Pinto", "lat": "-33.517241", "lng": "-71.123586"}, {"id": "337", "nombre": "Melipilla", "lat": "-33.686780", "lng": "-71.216045"}, {"id": "314", "nombre": "\u00d1u\u00f1oa", "lat": "-33.459518", "lng": "-70.597858"}, {"id": "345", "nombre": "Padre Hurtado", "lat": "-33.575862", "lng": "-70.813824"}, {"id": "336", "nombre": "Paine", "lat": "-33.813328", "lng": "-70.737956"}, {"id": "315", "nombre": "Pedro Aguirre Cerda", "lat": "-33.490096", "lng": "-70.675792"}, {"id": "346", "nombre": "Pe\u00f1aflor", "lat": "-33.606497", "lng": "-70.877531"}, {"id": "316", "nombre": "Pe\u00f1alolen", "lat": "-33.485871", "lng": "-70.547143"}, {"id": "328", "nombre": "Pirque", "lat": "-33.679667", "lng": "-70.583014"}, {"id": "317", "nombre": "Providencia", "lat": "-33.431494", "lng": "-70.611057"}, {"id": "318", "nombre": "Pudahuel", "lat": "-33.4421948", "lng": "-70.7667027"}, {"id": "327", "nombre": "Puente Alto", "lat": "-33.620226", "lng": "-70.591315"}, {"id": "319", "nombre": "Quilicura", "lat": "-33.359090", "lng": "-70.728871"}, {"id": "320", "nombre": "Quinta Normal", "lat": "-33.429280", "lng": "-70.692999"}, {"id": "321", "nombre": "Recoleta", "lat": "-33.405892", "lng": "-70.638563"}, {"id": "322", "nombre": "Renca", "lat": "-33.401565", "lng": "-70.707589"}, {"id": "333", "nombre": "San Bernardo", "lat": "-33.585796", "lng": "-70.699551"}, {"id": "323", "nombre": "San Joaquin", "lat": "-33.496346", "lng": "-70.626743"}, {"id": "329", "nombre": "San Jose De Maipo", "lat": "-33.768167", "lng": "-70.276530"}, {"id": "324", "nombre": "San Miguel", "lat": "-33.495089", "lng": "-70.651496"}, {"id": "18", "nombre": "San Pedro", "lat": "-33.894642", "lng": "-71.456634"}, {"id": "325", "nombre": "San Ramon", "lat": "-33.535854", "lng": "-70.644564"}, {"id": "295", "nombre": "Santiago", "lat": "-33.449288", "lng": "-70.669287"}, {"id": "342", "nombre": "Talagante", "lat": "-33.664827", "lng": "-70.928011"}, {"id": "332", "nombre": "Til-Til", "lat": "-33.084425", "lng": "-70.928487"}, {"id": "326", "nombre": "Vitacura", "lat": "-33.386826", "lng": "-70.563540"}]}, {"region": 16, "comunas": [{"id": "338", "nombre": "Alhue", "lat": "-34.031137", "lng": "-71.100986"}, {"id": "334", "nombre": "Buin", "lat": "-33.731915", "lng": "-70.742231"}, {"id": "335", "nombre": "Calera De Tango", "lat": "-33.628194", "lng": "-70.770057"}, {"id": "296", "nombre": "Cerrillos", "lat": "-33.500749", "lng": "-70.709519"}, {"id": "297", "nombre": "Cerro Navia", "lat": "-33.434858", "lng": "-70.730044"}, {"id": "330", "nombre": "Colina", "lat": "-33.204807", "lng": "-70.675752"}, {"id": "298", "nombre": "Conchali", "lat": "-33.383446", "lng": "-70.677602"}, {"id": "339", "nombre": "Curacavi", "lat": "-33.398397", "lng": "-71.127384"}, {"id": "299", "nombre": "El Bosque", "lat": "-33.564028", "lng": "-70.675615"}, {"id": "343", "nombre": "El Monte", "lat": "-33.681842", "lng": "-70.985108"}, {"id": "300", "nombre": "Estaci\u00f3n Central", "lat": "-33.463599", "lng": "-70.701278"}, {"id": "301", "nombre": "Huechuraba", "lat": "-33.374789", "lng": "-70.649025"}, {"id": "302", "nombre": "Independencia", "lat": "-33.413347", "lng": "-70.666295"}, {"id": "344", "nombre": "Isla De Maipo", "lat": "-33.747420", "lng": "-70.900116"}, {"id": "303", "nombre": "La Cisterna", "lat": "-33.529919", "lng": "-70.663584"}, {"id": "304", "nombre": "La Florida", "lat": "-33.537088", "lng": "-70.586124"}, {"id": "305", "nombre": "La Granja", "lat": "-33.532433", "lng": "-70.623861"}, {"id": "306", "nombre": "La Pintana", "lat": "-33.587773", "lng": "-70.633397"}, {"id": "307", "nombre": "La Reina", "lat": "-33.446470", "lng": "-70.546141"}, {"id": "331", "nombre": "Lampa", "lat": "-33.285037", "lng": "-70.877380"}, {"id": "308", "nombre": "Las Condes", "lat": "-33.409332", "lng": "-70.567308"}, {"id": "309", "nombre": "Lo Barnechea", "lat": "-33.357689", "lng": "-70.511874"}, {"id": "310", "nombre": "Lo Espejo", "lat": "-33.519326", "lng": "-70.691010"}, {"id": "311", "nombre": "Lo Prado", "lat": "-33.446574", "lng": "-70.722864"}, {"id": "312", "nombre": "Macul", "lat": "-33.490635", "lng": "-70.599213"}, {"id": "313", "nombre": "Maipu", "lat": "-33.521463", "lng": "-70.762566"}, {"id": "340", "nombre": "Maria Pinto", "lat": "-33.517241", "lng": "-71.123586"}, {"id": "337", "nombre": "Melipilla", "lat": "-33.686780", "lng": "-71.216045"}, {"id": "314", "nombre": "\u00d1u\u00f1oa", "lat": "-33.459518", "lng": "-70.597858"}, {"id": "345", "nombre": "Padre Hurtado", "lat": "-33.575862", "lng": "-70.813824"}, {"id": "336", "nombre": "Paine", "lat": "-33.813328", "lng": "-70.737956"}, {"id": "315", "nombre": "Pedro Aguirre Cerda", "lat": "-33.490096", "lng": "-70.675792"}, {"id": "346", "nombre": "Pe\u00f1aflor", "lat": "-33.606497", "lng": "-70.877531"}, {"id": "316", "nombre": "Pe\u00f1alolen", "lat": "-33.485871", "lng": "-70.547143"}, {"id": "328", "nombre": "Pirque", "lat": "-33.679667", "lng": "-70.583014"}, {"id": "317", "nombre": "Providencia", "lat": "-33.431494", "lng": "-70.611057"}, {"id": "318", "nombre": "Pudahuel", "lat": "-33.4421948", "lng": "-70.7667027"}, {"id": "327", "nombre": "Puente Alto", "lat": "-33.620226", "lng": "-70.591315"}, {"id": "319", "nombre": "Quilicura", "lat": "-33.359090", "lng": "-70.728871"}, {"id": "320", "nombre": "Quinta Normal", "lat": "-33.429280", "lng": "-70.692999"}, {"id": "321", "nombre": "Recoleta", "lat": "-33.405892", "lng": "-70.638563"}, {"id": "322", "nombre": "Renca", "lat": "-33.401565", "lng": "-70.707589"}, {"id": "333", "nombre": "San Bernardo", "lat": "-33.585796", "lng": "-70.699551"}, {"id": "323", "nombre": "San Joaquin", "lat": "-33.496346", "lng": "-70.626743"}, {"id": "329", "nombre": "San Jose De Maipo", "lat": "-33.768167", "lng": "-70.276530"}, {"id": "324", "nombre": "San Miguel", "lat": "-33.495089", "lng": "-70.651496"}, {"id": "18", "nombre": "San Pedro", "lat": "-33.894642", "lng": "-71.456634"}, {"id": "325", "nombre": "San Ramon", "lat": "-33.535854", "lng": "-70.644564"}, {"id": "295", "nombre": "Santiago", "lat": "-33.449288", "lng": "-70.669287"}, {"id": "342", "nombre": "Talagante", "lat": "-33.664827", "lng": "-70.928011"}, {"id": "332", "nombre": "Til-Til", "lat": "-33.084425", "lng": "-70.928487"}, {"id": "326", "nombre": "Vitacura", "lat": "-33.386826", "lng": "-70.563540"}]}, {"region": 8, "comunas": [{"id": "338", "nombre": "Alhue", "lat": "-34.031137", "lng": "-71.100986"}, {"id": "334", "nombre": "Buin", "lat": "-33.731915", "lng": "-70.742231"}, {"id": "335", "nombre": "Calera De Tango", "lat": "-33.628194", "lng": "-70.770057"}, {"id": "296", "nombre": "Cerrillos", "lat": "-33.500749", "lng": "-70.709519"}, {"id": "297", "nombre": "Cerro Navia", "lat": "-33.434858", "lng": "-70.730044"}, {"id": "330", "nombre": "Colina", "lat": "-33.204807", "lng": "-70.675752"}, {"id": "298", "nombre": "Conchali", "lat": "-33.383446", "lng": "-70.677602"}, {"id": "339", "nombre": "Curacavi", "lat": "-33.398397", "lng": "-71.127384"}, {"id": "299", "nombre": "El Bosque", "lat": "-33.564028", "lng": "-70.675615"}, {"id": "343", "nombre": "El Monte", "lat": "-33.681842", "lng": "-70.985108"}, {"id": "300", "nombre": "Estaci\u00f3n Central", "lat": "-33.463599", "lng": "-70.701278"}, {"id": "301", "nombre": "Huechuraba", "lat": "-33.374789", "lng": "-70.649025"}, {"id": "302", "nombre": "Independencia", "lat": "-33.413347", "lng": "-70.666295"}, {"id": "344", "nombre": "Isla De Maipo", "lat": "-33.747420", "lng": "-70.900116"}, {"id": "303", "nombre": "La Cisterna", "lat": "-33.529919", "lng": "-70.663584"}, {"id": "304", "nombre": "La Florida", "lat": "-33.537088", "lng": "-70.586124"}, {"id": "305", "nombre": "La Granja", "lat": "-33.532433", "lng": "-70.623861"}, {"id": "306", "nombre": "La Pintana", "lat": "-33.587773", "lng": "-70.633397"}, {"id": "307", "nombre": "La Reina", "lat": "-33.446470", "lng": "-70.546141"}, {"id": "331", "nombre": "Lampa", "lat": "-33.285037", "lng": "-70.877380"}, {"id": "308", "nombre": "Las Condes", "lat": "-33.409332", "lng": "-70.567308"}, {"id": "309", "nombre": "Lo Barnechea", "lat": "-33.357689", "lng": "-70.511874"}, {"id": "310", "nombre": "Lo Espejo", "lat": "-33.519326", "lng": "-70.691010"}, {"id": "311", "nombre": "Lo Prado", "lat": "-33.446574", "lng": "-70.722864"}, {"id": "312", "nombre": "Macul", "lat": "-33.490635", "lng": "-70.599213"}, {"id": "313", "nombre": "Maipu", "lat": "-33.521463", "lng": "-70.762566"}, {"id": "340", "nombre": "Maria Pinto", "lat": "-33.517241", "lng": "-71.123586"}, {"id": "337", "nombre": "Melipilla", "lat": "-33.686780", "lng": "-71.216045"}, {"id": "314", "nombre": "\u00d1u\u00f1oa", "lat": "-33.459518", "lng": "-70.597858"}, {"id": "345", "nombre": "Padre Hurtado", "lat": "-33.575862", "lng": "-70.813824"}, {"id": "336", "nombre": "Paine", "lat": "-33.813328", "lng": "-70.737956"}, {"id": "315", "nombre": "Pedro Aguirre Cerda", "lat": "-33.490096", "lng": "-70.675792"}, {"id": "346", "nombre": "Pe\u00f1aflor", "lat": "-33.606497", "lng": "-70.877531"}, {"id": "316", "nombre": "Pe\u00f1alolen", "lat": "-33.485871", "lng": "-70.547143"}, {"id": "328", "nombre": "Pirque", "lat": "-33.679667", "lng": "-70.583014"}, {"id": "317", "nombre": "Providencia", "lat": "-33.431494", "lng": "-70.611057"}, {"id": "318", "nombre": "Pudahuel", "lat": "-33.4421948", "lng": "-70.7667027"}, {"id": "327", "nombre": "Puente Alto", "lat": "-33.620226", "lng": "-70.591315"}, {"id": "319", "nombre": "Quilicura", "lat": "-33.359090", "lng": "-70.728871"}, {"id": "320", "nombre": "Quinta Normal", "lat": "-33.429280", "lng": "-70.692999"}, {"id": "321", "nombre": "Recoleta", "lat": "-33.405892", "lng": "-70.638563"}, {"id": "322", "nombre": "Renca", "lat": "-33.401565", "lng": "-70.707589"}, {"id": "333", "nombre": "San Bernardo", "lat": "-33.585796", "lng": "-70.699551"}, {"id": "323", "nombre": "San Joaquin", "lat": "-33.496346", "lng": "-70.626743"}, {"id": "329", "nombre": "San Jose De Maipo", "lat": "-33.768167", "lng": "-70.276530"}, {"id": "324", "nombre": "San Miguel", "lat": "-33.495089", "lng": "-70.651496"}, {"id": "18", "nombre": "San Pedro", "lat": "-33.894642", "lng": "-71.456634"}, {"id": "325", "nombre": "San Ramon", "lat": "-33.535854", "lng": "-70.644564"}, {"id": "295", "nombre": "Santiago", "lat": "-33.449288", "lng": "-70.669287"}, {"id": "342", "nombre": "Talagante", "lat": "-33.664827", "lng": "-70.928011"}, {"id": "332", "nombre": "Til-Til", "lat": "-33.084425", "lng": "-70.928487"}, {"id": "326", "nombre": "Vitacura", "lat": "-33.386826", "lng": "-70.563540"}]}, {"region": 9, "comunas": [{"id": "338", "nombre": "Alhue", "lat": "-34.031137", "lng": "-71.100986"}, {"id": "334", "nombre": "Buin", "lat": "-33.731915", "lng": "-70.742231"}, {"id": "335", "nombre": "Calera De Tango", "lat": "-33.628194", "lng": "-70.770057"}, {"id": "296", "nombre": "Cerrillos", "lat": "-33.500749", "lng": "-70.709519"}, {"id": "297", "nombre": "Cerro Navia", "lat": "-33.434858", "lng": "-70.730044"}, {"id": "330", "nombre": "Colina", "lat": "-33.204807", "lng": "-70.675752"}, {"id": "298", "nombre": "Conchali", "lat": "-33.383446", "lng": "-70.677602"}, {"id": "339", "nombre": "Curacavi", "lat": "-33.398397", "lng": "-71.127384"}, {"id": "299", "nombre": "El Bosque", "lat": "-33.564028", "lng": "-70.675615"}, {"id": "343", "nombre": "El Monte", "lat": "-33.681842", "lng": "-70.985108"}, {"id": "300", "nombre": "Estaci\u00f3n Central", "lat": "-33.463599", "lng": "-70.701278"}, {"id": "301", "nombre": "Huechuraba", "lat": "-33.374789", "lng": "-70.649025"}, {"id": "302", "nombre": "Independencia", "lat": "-33.413347", "lng": "-70.666295"}, {"id": "344", "nombre": "Isla De Maipo", "lat": "-33.747420", "lng": "-70.900116"}, {"id": "303", "nombre": "La Cisterna", "lat": "-33.529919", "lng": "-70.663584"}, {"id": "304", "nombre": "La Florida", "lat": "-33.537088", "lng": "-70.586124"}, {"id": "305", "nombre": "La Granja", "lat": "-33.532433", "lng": "-70.623861"}, {"id": "306", "nombre": "La Pintana", "lat": "-33.587773", "lng": "-70.633397"}, {"id": "307", "nombre": "La Reina", "lat": "-33.446470", "lng": "-70.546141"}, {"id": "331", "nombre": "Lampa", "lat": "-33.285037", "lng": "-70.877380"}, {"id": "308", "nombre": "Las Condes", "lat": "-33.409332", "lng": "-70.567308"}, {"id": "309", "nombre": "Lo Barnechea", "lat": "-33.357689", "lng": "-70.511874"}, {"id": "310", "nombre": "Lo Espejo", "lat": "-33.519326", "lng": "-70.691010"}, {"id": "311", "nombre": "Lo Prado", "lat": "-33.446574", "lng": "-70.722864"}, {"id": "312", "nombre": "Macul", "lat": "-33.490635", "lng": "-70.599213"}, {"id": "313", "nombre": "Maipu", "lat": "-33.521463", "lng": "-70.762566"}, {"id": "340", "nombre": "Maria Pinto", "lat": "-33.517241", "lng": "-71.123586"}, {"id": "337", "nombre": "Melipilla", "lat": "-33.686780", "lng": "-71.216045"}, {"id": "314", "nombre": "\u00d1u\u00f1oa", "lat": "-33.459518", "lng": "-70.597858"}, {"id": "345", "nombre": "Padre Hurtado", "lat": "-33.575862", "lng": "-70.813824"}, {"id": "336", "nombre": "Paine", "lat": "-33.813328", "lng": "-70.737956"}, {"id": "315", "nombre": "Pedro Aguirre Cerda", "lat": "-33.490096", "lng": "-70.675792"}, {"id": "346", "nombre": "Pe\u00f1aflor", "lat": "-33.606497", "lng": "-70.877531"}, {"id": "316", "nombre": "Pe\u00f1alolen", "lat": "-33.485871", "lng": "-70.547143"}, {"id": "328", "nombre": "Pirque", "lat": "-33.679667", "lng": "-70.583014"}, {"id": "317", "nombre": "Providencia", "lat": "-33.431494", "lng": "-70.611057"}, {"id": "318", "nombre": "Pudahuel", "lat": "-33.4421948", "lng": "-70.7667027"}, {"id": "327", "nombre": "Puente Alto", "lat": "-33.620226", "lng": "-70.591315"}, {"id": "319", "nombre": "Quilicura", "lat": "-33.359090", "lng": "-70.728871"}, {"id": "320", "nombre": "Quinta Normal", "lat": "-33.429280", "lng": "-70.692999"}, {"id": "321", "nombre": "Recoleta", "lat": "-33.405892", "lng": "-70.638563"}, {"id": "322", "nombre": "Renca", "lat": "-33.401565", "lng": "-70.707589"}, {"id": "333", "nombre": "San Bernardo", "lat": "-33.585796", "lng": "-70.699551"}, {"id": "323", "nombre": "San Joaquin", "lat": "-33.496346", "lng": "-70.626743"}, {"id": "329", "nombre": "San Jose De Maipo", "lat": "-33.768167", "lng": "-70.276530"}, {"id": "324", "nombre": "San Miguel", "lat": "-33.495089", "lng": "-70.651496"}, {"id": "18", "nombre": "San Pedro", "lat": "-33.894642", "lng": "-71.456634"}, {"id": "325", "nombre": "San Ramon", "lat": "-33.535854", "lng": "-70.644564"}, {"id": "295", "nombre": "Santiago", "lat": "-33.449288", "lng": "-70.669287"}, {"id": "342", "nombre": "Talagante", "lat": "-33.664827", "lng": "-70.928011"}, {"id": "332", "nombre": "Til-Til", "lat": "-33.084425", "lng": "-70.928487"}, {"id": "326", "nombre": "Vitacura", "lat": "-33.386826", "lng": "-70.563540"}]}, {"region": 14, "comunas": [{"id": "338", "nombre": "Alhue", "lat": "-34.031137", "lng": "-71.100986"}, {"id": "334", "nombre": "Buin", "lat": "-33.731915", "lng": "-70.742231"}, {"id": "335", "nombre": "Calera De Tango", "lat": "-33.628194", "lng": "-70.770057"}, {"id": "296", "nombre": "Cerrillos", "lat": "-33.500749", "lng": "-70.709519"}, {"id": "297", "nombre": "Cerro Navia", "lat": "-33.434858", "lng": "-70.730044"}, {"id": "330", "nombre": "Colina", "lat": "-33.204807", "lng": "-70.675752"}, {"id": "298", "nombre": "Conchali", "lat": "-33.383446", "lng": "-70.677602"}, {"id": "339", "nombre": "Curacavi", "lat": "-33.398397", "lng": "-71.127384"}, {"id": "299", "nombre": "El Bosque", "lat": "-33.564028", "lng": "-70.675615"}, {"id": "343", "nombre": "El Monte", "lat": "-33.681842", "lng": "-70.985108"}, {"id": "300", "nombre": "Estaci\u00f3n Central", "lat": "-33.463599", "lng": "-70.701278"}, {"id": "301", "nombre": "Huechuraba", "lat": "-33.374789", "lng": "-70.649025"}, {"id": "302", "nombre": "Independencia", "lat": "-33.413347", "lng": "-70.666295"}, {"id": "344", "nombre": "Isla De Maipo", "lat": "-33.747420", "lng": "-70.900116"}, {"id": "303", "nombre": "La Cisterna", "lat": "-33.529919", "lng": "-70.663584"}, {"id": "304", "nombre": "La Florida", "lat": "-33.537088", "lng": "-70.586124"}, {"id": "305", "nombre": "La Granja", "lat": "-33.532433", "lng": "-70.623861"}, {"id": "306", "nombre": "La Pintana", "lat": "-33.587773", "lng": "-70.633397"}, {"id": "307", "nombre": "La Reina", "lat": "-33.446470", "lng": "-70.546141"}, {"id": "331", "nombre": "Lampa", "lat": "-33.285037", "lng": "-70.877380"}, {"id": "308", "nombre": "Las Condes", "lat": "-33.409332", "lng": "-70.567308"}, {"id": "309", "nombre": "Lo Barnechea", "lat": "-33.357689", "lng": "-70.511874"}, {"id": "310", "nombre": "Lo Espejo", "lat": "-33.519326", "lng": "-70.691010"}, {"id": "311", "nombre": "Lo Prado", "lat": "-33.446574", "lng": "-70.722864"}, {"id": "312", "nombre": "Macul", "lat": "-33.490635", "lng": "-70.599213"}, {"id": "313", "nombre": "Maipu", "lat": "-33.521463", "lng": "-70.762566"}, {"id": "340", "nombre": "Maria Pinto", "lat": "-33.517241", "lng": "-71.123586"}, {"id": "337", "nombre": "Melipilla", "lat": "-33.686780", "lng": "-71.216045"}, {"id": "314", "nombre": "\u00d1u\u00f1oa", "lat": "-33.459518", "lng": "-70.597858"}, {"id": "345", "nombre": "Padre Hurtado", "lat": "-33.575862", "lng": "-70.813824"}, {"id": "336", "nombre": "Paine", "lat": "-33.813328", "lng": "-70.737956"}, {"id": "315", "nombre": "Pedro Aguirre Cerda", "lat": "-33.490096", "lng": "-70.675792"}, {"id": "346", "nombre": "Pe\u00f1aflor", "lat": "-33.606497", "lng": "-70.877531"}, {"id": "316", "nombre": "Pe\u00f1alolen", "lat": "-33.485871", "lng": "-70.547143"}, {"id": "328", "nombre": "Pirque", "lat": "-33.679667", "lng": "-70.583014"}, {"id": "317", "nombre": "Providencia", "lat": "-33.431494", "lng": "-70.611057"}, {"id": "318", "nombre": "Pudahuel", "lat": "-33.4421948", "lng": "-70.7667027"}, {"id": "327", "nombre": "Puente Alto", "lat": "-33.620226", "lng": "-70.591315"}, {"id": "319", "nombre": "Quilicura", "lat": "-33.359090", "lng": "-70.728871"}, {"id": "320", "nombre": "Quinta Normal", "lat": "-33.429280", "lng": "-70.692999"}, {"id": "321", "nombre": "Recoleta", "lat": "-33.405892", "lng": "-70.638563"}, {"id": "322", "nombre": "Renca", "lat": "-33.401565", "lng": "-70.707589"}, {"id": "333", "nombre": "San Bernardo", "lat": "-33.585796", "lng": "-70.699551"}, {"id": "323", "nombre": "San Joaquin", "lat": "-33.496346", "lng": "-70.626743"}, {"id": "329", "nombre": "San Jose De Maipo", "lat": "-33.768167", "lng": "-70.276530"}, {"id": "324", "nombre": "San Miguel", "lat": "-33.495089", "lng": "-70.651496"}, {"id": "18", "nombre": "San Pedro", "lat": "-33.894642", "lng": "-71.456634"}, {"id": "325", "nombre": "San Ramon", "lat": "-33.535854", "lng": "-70.644564"}, {"id": "295", "nombre": "Santiago", "lat": "-33.449288", "lng": "-70.669287"}, {"id": "342", "nombre": "Talagante", "lat": "-33.664827", "lng": "-70.928011"}, {"id": "332", "nombre": "Til-Til", "lat": "-33.084425", "lng": "-70.928487"}, {"id": "326", "nombre": "Vitacura", "lat": "-33.386826", "lng": "-70.563540"}]}, {"region": 10, "comunas": [{"id": "338", "nombre": "Alhue", "lat": "-34.031137", "lng": "-71.100986"}, {"id": "334", "nombre": "Buin", "lat": "-33.731915", "lng": "-70.742231"}, {"id": "335", "nombre": "Calera De Tango", "lat": "-33.628194", "lng": "-70.770057"}, {"id": "296", "nombre": "Cerrillos", "lat": "-33.500749", "lng": "-70.709519"}, {"id": "297", "nombre": "Cerro Navia", "lat": "-33.434858", "lng": "-70.730044"}, {"id": "330", "nombre": "Colina", "lat": "-33.204807", "lng": "-70.675752"}, {"id": "298", "nombre": "Conchali", "lat": "-33.383446", "lng": "-70.677602"}, {"id": "339", "nombre": "Curacavi", "lat": "-33.398397", "lng": "-71.127384"}, {"id": "299", "nombre": "El Bosque", "lat": "-33.564028", "lng": "-70.675615"}, {"id": "343", "nombre": "El Monte", "lat": "-33.681842", "lng": "-70.985108"}, {"id": "300", "nombre": "Estaci\u00f3n Central", "lat": "-33.463599", "lng": "-70.701278"}, {"id": "301", "nombre": "Huechuraba", "lat": "-33.374789", "lng": "-70.649025"}, {"id": "302", "nombre": "Independencia", "lat": "-33.413347", "lng": "-70.666295"}, {"id": "344", "nombre": "Isla De Maipo", "lat": "-33.747420", "lng": "-70.900116"}, {"id": "303", "nombre": "La Cisterna", "lat": "-33.529919", "lng": "-70.663584"}, {"id": "304", "nombre": "La Florida", "lat": "-33.537088", "lng": "-70.586124"}, {"id": "305", "nombre": "La Granja", "lat": "-33.532433", "lng": "-70.623861"}, {"id": "306", "nombre": "La Pintana", "lat": "-33.587773", "lng": "-70.633397"}, {"id": "307", "nombre": "La Reina", "lat": "-33.446470", "lng": "-70.546141"}, {"id": "331", "nombre": "Lampa", "lat": "-33.285037", "lng": "-70.877380"}, {"id": "308", "nombre": "Las Condes", "lat": "-33.409332", "lng": "-70.567308"}, {"id": "309", "nombre": "Lo Barnechea", "lat": "-33.357689", "lng": "-70.511874"}, {"id": "310", "nombre": "Lo Espejo", "lat": "-33.519326", "lng": "-70.691010"}, {"id": "311", "nombre": "Lo Prado", "lat": "-33.446574", "lng": "-70.722864"}, {"id": "312", "nombre": "Macul", "lat": "-33.490635", "lng": "-70.599213"}, {"id": "313", "nombre": "Maipu", "lat": "-33.521463", "lng": "-70.762566"}, {"id": "340", "nombre": "Maria Pinto", "lat": "-33.517241", "lng": "-71.123586"}, {"id": "337", "nombre": "Melipilla", "lat": "-33.686780", "lng": "-71.216045"}, {"id": "314", "nombre": "\u00d1u\u00f1oa", "lat": "-33.459518", "lng": "-70.597858"}, {"id": "345", "nombre": "Padre Hurtado", "lat": "-33.575862", "lng": "-70.813824"}, {"id": "336", "nombre": "Paine", "lat": "-33.813328", "lng": "-70.737956"}, {"id": "315", "nombre": "Pedro Aguirre Cerda", "lat": "-33.490096", "lng": "-70.675792"}, {"id": "346", "nombre": "Pe\u00f1aflor", "lat": "-33.606497", "lng": "-70.877531"}, {"id": "316", "nombre": "Pe\u00f1alolen", "lat": "-33.485871", "lng": "-70.547143"}, {"id": "328", "nombre": "Pirque", "lat": "-33.679667", "lng": "-70.583014"}, {"id": "317", "nombre": "Providencia", "lat": "-33.431494", "lng": "-70.611057"}, {"id": "318", "nombre": "Pudahuel", "lat": "-33.4421948", "lng": "-70.7667027"}, {"id": "327", "nombre": "Puente Alto", "lat": "-33.620226", "lng": "-70.591315"}, {"id": "319", "nombre": "Quilicura", "lat": "-33.359090", "lng": "-70.728871"}, {"id": "320", "nombre": "Quinta Normal", "lat": "-33.429280", "lng": "-70.692999"}, {"id": "321", "nombre": "Recoleta", "lat": "-33.405892", "lng": "-70.638563"}, {"id": "322", "nombre": "Renca", "lat": "-33.401565", "lng": "-70.707589"}, {"id": "333", "nombre": "San Bernardo", "lat": "-33.585796", "lng": "-70.699551"}, {"id": "323", "nombre": "San Joaquin", "lat": "-33.496346", "lng": "-70.626743"}, {"id": "329", "nombre": "San Jose De Maipo", "lat": "-33.768167", "lng": "-70.276530"}, {"id": "324", "nombre": "San Miguel", "lat": "-33.495089", "lng": "-70.651496"}, {"id": "18", "nombre": "San Pedro", "lat": "-33.894642", "lng": "-71.456634"}, {"id": "325", "nombre": "San Ramon", "lat": "-33.535854", "lng": "-70.644564"}, {"id": "295", "nombre": "Santiago", "lat": "-33.449288", "lng": "-70.669287"}, {"id": "342", "nombre": "Talagante", "lat": "-33.664827", "lng": "-70.928011"}, {"id": "332", "nombre": "Til-Til", "lat": "-33.084425", "lng": "-70.928487"}, {"id": "326", "nombre": "Vitacura", "lat": "-33.386826", "lng": "-70.563540"}]}, {"region": 11, "comunas": [{"id": "338", "nombre": "Alhue", "lat": "-34.031137", "lng": "-71.100986"}, {"id": "334", "nombre": "Buin", "lat": "-33.731915", "lng": "-70.742231"}, {"id": "335", "nombre": "Calera De Tango", "lat": "-33.628194", "lng": "-70.770057"}, {"id": "296", "nombre": "Cerrillos", "lat": "-33.500749", "lng": "-70.709519"}, {"id": "297", "nombre": "Cerro Navia", "lat": "-33.434858", "lng": "-70.730044"}, {"id": "330", "nombre": "Colina", "lat": "-33.204807", "lng": "-70.675752"}, {"id": "298", "nombre": "Conchali", "lat": "-33.383446", "lng": "-70.677602"}, {"id": "339", "nombre": "Curacavi", "lat": "-33.398397", "lng": "-71.127384"}, {"id": "299", "nombre": "El Bosque", "lat": "-33.564028", "lng": "-70.675615"}, {"id": "343", "nombre": "El Monte", "lat": "-33.681842", "lng": "-70.985108"}, {"id": "300", "nombre": "Estaci\u00f3n Central", "lat": "-33.463599", "lng": "-70.701278"}, {"id": "301", "nombre": "Huechuraba", "lat": "-33.374789", "lng": "-70.649025"}, {"id": "302", "nombre": "Independencia", "lat": "-33.413347", "lng": "-70.666295"}, {"id": "344", "nombre": "Isla De Maipo", "lat": "-33.747420", "lng": "-70.900116"}, {"id": "303", "nombre": "La Cisterna", "lat": "-33.529919", "lng": "-70.663584"}, {"id": "304", "nombre": "La Florida", "lat": "-33.537088", "lng": "-70.586124"}, {"id": "305", "nombre": "La Granja", "lat": "-33.532433", "lng": "-70.623861"}, {"id": "306", "nombre": "La Pintana", "lat": "-33.587773", "lng": "-70.633397"}, {"id": "307", "nombre": "La Reina", "lat": "-33.446470", "lng": "-70.546141"}, {"id": "331", "nombre": "Lampa", "lat": "-33.285037", "lng": "-70.877380"}, {"id": "308", "nombre": "Las Condes", "lat": "-33.409332", "lng": "-70.567308"}, {"id": "309", "nombre": "Lo Barnechea", "lat": "-33.357689", "lng": "-70.511874"}, {"id": "310", "nombre": "Lo Espejo", "lat": "-33.519326", "lng": "-70.691010"}, {"id": "311", "nombre": "Lo Prado", "lat": "-33.446574", "lng": "-70.722864"}, {"id": "312", "nombre": "Macul", "lat": "-33.490635", "lng": "-70.599213"}, {"id": "313", "nombre": "Maipu", "lat": "-33.521463", "lng": "-70.762566"}, {"id": "340", "nombre": "Maria Pinto", "lat": "-33.517241", "lng": "-71.123586"}, {"id": "337", "nombre": "Melipilla", "lat": "-33.686780", "lng": "-71.216045"}, {"id": "314", "nombre": "\u00d1u\u00f1oa", "lat": "-33.459518", "lng": "-70.597858"}, {"id": "345", "nombre": "Padre Hurtado", "lat": "-33.575862", "lng": "-70.813824"}, {"id": "336", "nombre": "Paine", "lat": "-33.813328", "lng": "-70.737956"}, {"id": "315", "nombre": "Pedro Aguirre Cerda", "lat": "-33.490096", "lng": "-70.675792"}, {"id": "346", "nombre": "Pe\u00f1aflor", "lat": "-33.606497", "lng": "-70.877531"}, {"id": "316", "nombre": "Pe\u00f1alolen", "lat": "-33.485871", "lng": "-70.547143"}, {"id": "328", "nombre": "Pirque", "lat": "-33.679667", "lng": "-70.583014"}, {"id": "317", "nombre": "Providencia", "lat": "-33.431494", "lng": "-70.611057"}, {"id": "318", "nombre": "Pudahuel", "lat": "-33.4421948", "lng": "-70.7667027"}, {"id": "327", "nombre": "Puente Alto", "lat": "-33.620226", "lng": "-70.591315"}, {"id": "319", "nombre": "Quilicura", "lat": "-33.359090", "lng": "-70.728871"}, {"id": "320", "nombre": "Quinta Normal", "lat": "-33.429280", "lng": "-70.692999"}, {"id": "321", "nombre": "Recoleta", "lat": "-33.405892", "lng": "-70.638563"}, {"id": "322", "nombre": "Renca", "lat": "-33.401565", "lng": "-70.707589"}, {"id": "333", "nombre": "San Bernardo", "lat": "-33.585796", "lng": "-70.699551"}, {"id": "323", "nombre": "San Joaquin", "lat": "-33.496346", "lng": "-70.626743"}, {"id": "329", "nombre": "San Jose De Maipo", "lat": "-33.768167", "lng": "-70.276530"}, {"id": "324", "nombre": "San Miguel", "lat": "-33.495089", "lng": "-70.651496"}, {"id": "18", "nombre": "San Pedro", "lat": "-33.894642", "lng": "-71.456634"}, {"id": "325", "nombre": "San Ramon", "lat": "-33.535854", "lng": "-70.644564"}, {"id": "295", "nombre": "Santiago", "lat": "-33.449288", "lng": "-70.669287"}, {"id": "342", "nombre": "Talagante", "lat": "-33.664827", "lng": "-70.928011"}, {"id": "332", "nombre": "Til-Til", "lat": "-33.084425", "lng": "-70.928487"}, {"id": "326", "nombre": "Vitacura", "lat": "-33.386826", "lng": "-70.563540"}]}, {"region": 12, "comunas": [{"id": "338", "nombre": "Alhue", "lat": "-34.031137", "lng": "-71.100986"}, {"id": "334", "nombre": "Buin", "lat": "-33.731915", "lng": "-70.742231"}, {"id": "335", "nombre": "Calera De Tango", "lat": "-33.628194", "lng": "-70.770057"}, {"id": "296", "nombre": "Cerrillos", "lat": "-33.500749", "lng": "-70.709519"}, {"id": "297", "nombre": "Cerro Navia", "lat": "-33.434858", "lng": "-70.730044"}, {"id": "330", "nombre": "Colina", "lat": "-33.204807", "lng": "-70.675752"}, {"id": "298", "nombre": "Conchali", "lat": "-33.383446", "lng": "-70.677602"}, {"id": "339", "nombre": "Curacavi", "lat": "-33.398397", "lng": "-71.127384"}, {"id": "299", "nombre": "El Bosque", "lat": "-33.564028", "lng": "-70.675615"}, {"id": "343", "nombre": "El Monte", "lat": "-33.681842", "lng": "-70.985108"}, {"id": "300", "nombre": "Estaci\u00f3n Central", "lat": "-33.463599", "lng": "-70.701278"}, {"id": "301", "nombre": "Huechuraba", "lat": "-33.374789", "lng": "-70.649025"}, {"id": "302", "nombre": "Independencia", "lat": "-33.413347", "lng": "-70.666295"}, {"id": "344", "nombre": "Isla De Maipo", "lat": "-33.747420", "lng": "-70.900116"}, {"id": "303", "nombre": "La Cisterna", "lat": "-33.529919", "lng": "-70.663584"}, {"id": "304", "nombre": "La Florida", "lat": "-33.537088", "lng": "-70.586124"}, {"id": "305", "nombre": "La Granja", "lat": "-33.532433", "lng": "-70.623861"}, {"id": "306", "nombre": "La Pintana", "lat": "-33.587773", "lng": "-70.633397"}, {"id": "307", "nombre": "La Reina", "lat": "-33.446470", "lng": "-70.546141"}, {"id": "331", "nombre": "Lampa", "lat": "-33.285037", "lng": "-70.877380"}, {"id": "308", "nombre": "Las Condes", "lat": "-33.409332", "lng": "-70.567308"}, {"id": "309", "nombre": "Lo Barnechea", "lat": "-33.357689", "lng": "-70.511874"}, {"id": "310", "nombre": "Lo Espejo", "lat": "-33.519326", "lng": "-70.691010"}, {"id": "311", "nombre": "Lo Prado", "lat": "-33.446574", "lng": "-70.722864"}, {"id": "312", "nombre": "Macul", "lat": "-33.490635", "lng": "-70.599213"}, {"id": "313", "nombre": "Maipu", "lat": "-33.521463", "lng": "-70.762566"}, {"id": "340", "nombre": "Maria Pinto", "lat": "-33.517241", "lng": "-71.123586"}, {"id": "337", "nombre": "Melipilla", "lat": "-33.686780", "lng": "-71.216045"}, {"id": "314", "nombre": "\u00d1u\u00f1oa", "lat": "-33.459518", "lng": "-70.597858"}, {"id": "345", "nombre": "Padre Hurtado", "lat": "-33.575862", "lng": "-70.813824"}, {"id": "336", "nombre": "Paine", "lat": "-33.813328", "lng": "-70.737956"}, {"id": "315", "nombre": "Pedro Aguirre Cerda", "lat": "-33.490096", "lng": "-70.675792"}, {"id": "346", "nombre": "Pe\u00f1aflor", "lat": "-33.606497", "lng": "-70.877531"}, {"id": "316", "nombre": "Pe\u00f1alolen", "lat": "-33.485871", "lng": "-70.547143"}, {"id": "328", "nombre": "Pirque", "lat": "-33.679667", "lng": "-70.583014"}, {"id": "317", "nombre": "Providencia", "lat": "-33.431494", "lng": "-70.611057"}, {"id": "318", "nombre": "Pudahuel", "lat": "-33.4421948", "lng": "-70.7667027"}, {"id": "327", "nombre": "Puente Alto", "lat": "-33.620226", "lng": "-70.591315"}, {"id": "319", "nombre": "Quilicura", "lat": "-33.359090", "lng": "-70.728871"}, {"id": "320", "nombre": "Quinta Normal", "lat": "-33.429280", "lng": "-70.692999"}, {"id": "321", "nombre": "Recoleta", "lat": "-33.405892", "lng": "-70.638563"}, {"id": "322", "nombre": "Renca", "lat": "-33.401565", "lng": "-70.707589"}, {"id": "333", "nombre": "San Bernardo", "lat": "-33.585796", "lng": "-70.699551"}, {"id": "323", "nombre": "San Joaquin", "lat": "-33.496346", "lng": "-70.626743"}, {"id": "329", "nombre": "San Jose De Maipo", "lat": "-33.768167", "lng": "-70.276530"}, {"id": "324", "nombre": "San Miguel", "lat": "-33.495089", "lng": "-70.651496"}, {"id": "18", "nombre": "San Pedro", "lat": "-33.894642", "lng": "-71.456634"}, {"id": "325", "nombre": "San Ramon", "lat": "-33.535854", "lng": "-70.644564"}, {"id": "295", "nombre": "Santiago", "lat": "-33.449288", "lng": "-70.669287"}, {"id": "342", "nombre": "Talagante", "lat": "-33.664827", "lng": "-70.928011"}, {"id": "332", "nombre": "Til-Til", "lat": "-33.084425", "lng": "-70.928487"}, {"id": "326", "nombre": "Vitacura", "lat": "-33.386826", "lng": "-70.563540"}]}]